[
  {
    "name": "Oxford",
    "latitude": 51.740769,
    "longitude": -1.217713
  },
  {
    "name": "London",
    "latitude": 51.509648,
    "longitude": -0.099076
  },
  {
    "name": "Bangor",
    "latitude": 53.22585,
    "longitude": -4.135719
  },
  {
    "name": "Cardiff",
    "latitude": 51.501018,
    "longitude": -3.192626
  },
  {
    "name": "Weston-Super-Mare",
    "latitude": 51.340481,
    "longitude": -2.965166
  },
  {
    "name": "Bristol",
    "latitude": 51.508817,
    "longitude": -2.572741
  },
  {
    "name": "Brighton",
    "latitude": 50.830346,
    "longitude": -0.169974
  },
  {
    "name": "Felixstowe",
    "latitude": 51.95275,
    "longitude": 1.335575
  },
  {
    "name": "Swanage",
    "latitude": 50.610991,
    "longitude": -1.95601
  },
  {
    "name": "Portsmouth",
    "latitude": 50.800708,
    "longitude": -1.074012
  },
  {
    "name": "Southampton",
    "latitude": 50.928032,
    "longitude": -1.335974
  },
  {
    "name": "Isle of Wight",
    "latitude": 50.644982,
    "longitude": -1.294321
  },
  {
    "name": "Manchester",
    "latitude": 53.462761,
    "longitude": -2.216665
  },
  {
    "name": "Leeds",
    "latitude": 53.789944,
    "longitude": -1.560632
  },
  {
    "name": "Leicester",
    "latitude": 52.648702,
    "longitude": -1.195163
  },
  {
    "name": "Hartlepool",
    "latitude": 54.672663,
    "longitude": -1.254951
  },
  {
    "name": "Sunderland",
    "latitude": 54.879798,
    "longitude": -1.45365
  },
  {
    "name": "Newcastle upon Tyne",
    "latitude": 55.009551,
    "longitude": -1.668049
  },
  {
    "name": "Dover",
    "latitude": 51.117312,
    "longitude": 1.305463
  },
  {
    "name": "Edinburgh",
    "latitude": 55.944321,
    "longitude": -3.242511
  },
  {
    "name": "Glasgow",
    "latitude": 55.823552,
    "longitude": -4.201605
  },
  {
    "name": "Rowchoish",
    "latitude": 56.202258,
    "longitude": -4.683677
  },
  {
    "name": "St. Andrews",
    "latitude": 56.338795,
    "longitude": -2.79942
  },
  {
    "name": "Birmingham",
    "latitude": 52.482098,
    "longitude": -1.85944
  },
  {
    "name": "Swindon",
    "latitude": 51.562636,
    "longitude": -1.756717
  },
  {
    "name": "Tiptree",
    "latitude": 51.816309,
    "longitude": 0.743139
  },
  {
    "name": "Bangor",
    "latitude": 53.22585,
    "longitude": -4.135719
  },
  {
    "name": "Llanberis",
    "latitude": 53.115279,
    "longitude": -4.132072
  },
  {
    "name": "Lake District",
    "latitude": 54.55211,
    "longitude": -3.013638
  },
  {
    "name": "Dumbarton",
    "latitude": 55.94596,
    "longitude": -4.553628
  },
  {
    "name": "Blackpool",
    "latitude": 53.83012,
    "longitude": -3.038014
  },
  {
    "name": "Liverpool",
    "latitude": 53.399369,
    "longitude": -2.936434
  },
  {
    "name": "Penzance",
    "latitude": 50.11861,
    "longitude": -5.53715
  },
  {
    "name": "Bath",
    "latitude": 51.378572,
    "longitude": -2.367934
  },
  {
    "name": "Reading",
    "latitude": 51.473203,
    "longitude": -1.049022
  },
  {
    "name": "Worthing",
    "latitude": 50.82544,
    "longitude": -0.403544
  },
  {
    "name": "Hastings",
    "latitude": 50.870815,
    "longitude": 0.54926
  },
  {
    "name": "Eastbourne",
    "latitude": 50.769588,
    "longitude": 0.281554
  },
  {
    "name": "Cheltenham",
    "latitude": 51.898679,
    "longitude": -2.084179
  },
  {
    "name": "Hay-on-Wye",
    "latitude": 52.072566,
    "longitude": -3.125162
  },
  {
    "name": "Holyhead",
    "latitude": 53.308112,
    "longitude": -4.631022
  },
  {
    "name": "Thame",
    "latitude": 51.752247,
    "longitude": -0.98484
  },
  {
    "name": "Henley on Thames",
    "latitude": 51.53333,
    "longitude": -0.9
  },
  {
    "name": "Milton Keynes",
    "latitude": 52.08107,
    "longitude": -0.745294
  },
  {
    "name": "Slough",
    "latitude": 51.51478,
    "longitude": -0.608724
  },
  {
    "name": "Coventry",
    "latitude": 52.416786,
    "longitude": -1.521578
  },
  {
    "name": "Banbury",
    "latitude": 52.057216,
    "longitude": -1.341576
  },

  {
    "name": "Bicester",
    "latitude": 51.900217,
    "longitude": -1.155961
  },
  {
    "name": "Windsor",
    "latitude": 51.479436,
    "longitude": -0.624004
  },
  {
    "name": "Bournemouth",
    "latitude": 50.740189,
    "longitude": -1.864966
  }
]
